[{"name":"필라델피아 국제공항12","address":"필라델피아","lat":"39.8798823247835000","lng":"-75.2414320107075000","happened_at":null,"reported2oie_at":null,"memo":"","created_at":"2021-02-02T11:45:14.090786+09:00","updated_at":"2021-02-04T21:55:09.688003+09:00"},{"name":"부다페스트","address":"부다페스트 어딘가","lat":"47.5368496445896000","lng":"19.1111667181695000","happened_at":null,"reported2oie_at":null,"memo":null,"created_at":"2021-02-02T11:45:59.787370+09:00","updated_at":"2021-02-02T11:45:59.787411+09:00"},{"name":"도쿄시","address":"도쿄 어딘가","lat":"35.6810191052645000","lng":"139.7712724653490000","happened_at":null,"reported2oie_at":null,"memo":null,"created_at":"2021-02-02T11:46:31.826588+09:00","updated_at":"2021-02-02T11:46:31.826630+09:00"},{"name":"2/3 할일","address":null,"lat":"11.0000000000000000","lng":"11.0000000000000000","happened_at":null,"reported2oie_at":null,"memo":"제작자페이지 넣기 \r\n\r\n발생지등록 비번 넣기","created_at":"2021-02-03T22:48:46.397258+09:00","updated_at":"2021-02-03T22:48:46.397295+09:00"},{"name":"키르기스탄","address":null,"lat":"41.5883919226905000","lng":"73.6461701488888000","happened_at":null,"reported2oie_at":null,"memo":"41.58839192269048, 73.64617014888876","created_at":"2021-02-04T22:15:57.088301+09:00","updated_at":"2021-02-04T22:15:57.088340+09:00"},{"name":"카자흐스탄","address":null,"lat":"48.2839038633117000","lng":"68.6348652180222000","happened_at":null,"reported2oie_at":null,"memo":"48.283903863311686, 6","created_at":"2021-02-04T22:16:18.511690+09:00","updated_at":"2021-02-04T22:16:18.511727+09:00"},{"name":"우크라이나","address":null,"lat":"50.4754512952481000","lng":"30.6585683461032000","happened_at":null,"reported2oie_at":null,"memo":"50.475451295248064,","created_at":"2021-02-04T22:16:46.051013+09:00","updated_at":"2021-02-04T22:16:46.051051+09:00"},{"name":"2/4 할일","address":null,"lat":"111.0000000000000000","lng":"23.0000000000000000","happened_at":null,"reported2oie_at":null,"memo":"- 진형 \r\n1. SQL 서버에 올리기(njson)\r\n2. first folder 주형님꼐 드리기 \r\n- 상훈\r\n1. clickEvent. Infowindow\r\n- 주형\r\n1. page layout \r\n2. 검색기능\r\n3. 발표준비(가능하시면)\r\n- 영우\r\n1. 데이터에 한국데이터 추가 \r\n2. 발표준비(가능하시면)\r\n\r\npw: dsc52dk","created_at":"2021-02-04T22:33:28.926790+09:00","updated_at":"2021-02-04T22:45:07.552699+09:00"}]